City_ID,City,Lat,Lng,Max Temp,Humidity,Cloudiness,Wind Speed,Country,Date
0,tongchuan,35.0806,109.0897,15.810000000000002,22,66,1.48,CN,1678374207
1,hobart,-42.8794,147.3294,14.920000000000016,73,91,4.12,AU,1678373965
2,butaritari,3.0707,172.7902,27.180000000000007,78,100,4.64,KI,1678373967
3,grand gaube,-20.0064,57.6608,27.430000000000007,82,70,2.68,MU,1678374029
4,albanel,48.8832,-72.4487,1.2600000000000477,82,100,3.86,CA,1678374208
5,vaini,-21.2,-175.2,24.090000000000032,69,40,4.63,TO,1678373958
6,port alfred,-33.5906,26.891,24.54000000000002,76,0,1.79,ZA,1678373964
7,dryden,49.7833,-92.7503,-7.839999999999975,79,75,3.09,CA,1678374209
8,busselton,-33.65,115.3333,17.670000000000016,88,93,4.42,AU,1678373957
9,innisfail,-17.5333,146.0333,24.950000000000045,82,0,2.3,AU,1678374209
10,arraial do cabo,-22.9661,-42.0278,31.920000000000016,58,0,7.72,BR,1678373985
11,leningradskiy,69.3833,178.4167,-13.789999999999964,88,100,1.93,RU,1678373973
12,bara,10.3744,10.7288,40.05000000000001,7,100,6.17,NG,1678374209
13,longyearbyen,78.2186,15.6401,-14.089999999999975,56,75,9.77,SJ,1678373981
14,atuona,-9.8,-139.0333,26.29000000000002,76,21,3.8,PF,1678373959
15,vao,-22.6667,167.4833,25.100000000000023,70,20,6.86,NC,1678373960
16,rikitea,-23.1203,-134.9692,25.650000000000034,83,22,5.03,PF,1678373956
17,yining,29.0361,114.5636,16.680000000000007,66,38,1.07,CN,1678374210
18,coquimbo,-29.9533,-71.3436,20.850000000000023,73,20,3.6,CL,1678373759
19,taltal,-25.4,-70.4833,22.58000000000004,72,0,2.77,CL,1678373965
20,rocha,-34.4833,-54.3333,29.57000000000005,41,0,3.83,UY,1678374076
21,kralendijk,12.15,-68.2667,25.370000000000005,79,76,5.83,BQ,1678374125
22,punta arenas,-53.15,-70.9167,8.060000000000002,57,40,6.17,CL,1678373966
23,ardakan,32.31,54.0175,23.840000000000032,26,100,3.2,IR,1678374211
24,roma,43.2128,-75.4557,-0.029999999999972715,70,100,2.57,US,1678374092
25,naze,28.3667,129.4833,14.510000000000048,84,100,2.86,JP,1678373991
26,hithadhoo,-0.6,73.0833,28.02000000000004,70,57,1.64,MV,1678373965
27,sapouy,11.5544,-1.7736,40.31,10,24,2.08,BF,1678374212
28,los llanos de aridane,28.6585,-17.9182,21.860000000000014,83,20,3.09,ES,1678373957
29,san ramon,37.7799,-121.978,7.680000000000007,83,100,1.54,US,1678374213
30,rawson,-43.3002,-65.1023,20.060000000000002,36,73,1.19,AR,1678373998
31,tallahassee,30.4383,-84.2807,18.25,61,100,4.12,US,1678374121
32,seoul,37.5683,126.9778,4.760000000000048,100,6,2.06,KR,1678374181
33,chicama,-7.8447,-79.1469,26.230000000000018,70,100,2.15,PE,1678374099
34,fare,-16.7,-151.0167,28.03000000000003,71,25,4.08,PF,1678374102
35,bom jesus,-9.0744,-44.3586,36.379999999999995,24,60,3.1,BR,1678374214
36,solnechnyy,50.7214,136.6319,-8.979999999999961,90,100,0.87,RU,1678374214
37,hermanus,-34.4187,19.2345,18.220000000000027,80,99,3.25,ZA,1678373970
38,norman wells,65.282,-126.8329,-30.97999999999999,69,40,2.06,CA,1678373972
39,albany,42.6001,-73.9662,1.920000000000016,65,23,1.79,US,1678373824
40,qaanaaq,77.484,-69.3632,-14.069999999999993,65,6,3.26,GL,1678373970
41,simiti,7.9579,-73.9436,29.310000000000002,64,100,0.98,CO,1678374215
42,kutum,14.2,24.6667,29.410000000000025,9,63,7.13,SD,1678374215
43,san andres,12.5847,-81.7006,28.010000000000048,65,20,4.63,CO,1678374215
44,half moon bay,37.4636,-122.4286,8.930000000000007,82,100,3.6,US,1678374082
45,guerrero negro,27.9769,-114.0611,13.170000000000016,78,37,6.44,MX,1678373999
46,mujiayingzi,42.1167,118.7833,9.710000000000036,32,38,2.78,CN,1678374216
47,bhadra,29.1167,75.1667,23.99000000000001,21,0,3.56,IN,1678374216
48,tecoanapa,16.5167,-98.75,25.760000000000048,63,0,0.28,MX,1678374217
49,mount gambier,-37.8333,140.7667,13.600000000000023,93,100,1.66,AU,1678374021
50,souillac,-20.5167,57.5167,26.210000000000036,100,75,5.14,MU,1678373966
51,thompson,55.7435,-97.8558,-29.909999999999968,76,0,1.54,CA,1678373970
52,ushuaia,-54.8,-68.3,10.810000000000002,43,40,6.17,AR,1678373956
53,sabha,27.0377,14.4283,28.400000000000034,14,0,1.34,LY,1678374218
54,yellowknife,62.456,-114.3525,-18.579999999999984,84,100,3.6,CA,1678373974
55,aanekoski,62.6946,25.818,-5.17999999999995,39,14,3.71,FI,1678374218
56,meulaboh,4.1363,96.1285,24.810000000000002,89,70,2.48,ID,1678374036
57,vila velha,-20.3297,-40.2925,29.970000000000027,71,40,3.6,BR,1678373856
58,estelle,29.8458,-90.1067,23.890000000000043,81,75,2.57,US,1678374219
59,clyde river,70.4692,-68.5914,-13.870000000000005,72,0,4.63,CA,1678373957
60,mataura,-46.1927,168.8643,8.210000000000036,98,6,1.04,NZ,1678373967
61,ponta do sol,32.6667,-17.1,25.400000000000034,85,18,2.46,PT,1678373989
62,novyye burasy,52.1324,46.0714,0.9300000000000068,100,100,3.38,RU,1678374220
63,geraldton,-28.7667,114.6,21.200000000000045,75,8,5.37,AU,1678374027
64,sarakhs,36.5449,61.1577,22.120000000000005,37,100,4.03,IR,1678374220
65,ahipara,-35.1667,173.1667,19.110000000000014,89,100,4.62,NZ,1678374025
66,tautira,-17.7333,-149.15,27.510000000000048,77,28,4.19,PF,1678374221
67,bluff,-46.6,168.3333,11.75,85,11,2.86,NZ,1678373965
68,mount isa,-20.7333,139.5,20.870000000000005,100,75,5.14,AU,1678373804
69,torbay,47.6666,-52.7314,1.6000000000000227,83,75,15.65,CA,1678373975
70,grindavik,63.8424,-22.4338,-0.7399999999999523,51,75,8.23,IS,1678374221
71,carnarvon,-24.8667,113.6333,24.610000000000014,67,0,10.32,AU,1678373983
72,mar del plata,-38.0023,-57.5575,24.970000000000027,75,69,1.79,AR,1678374022
73,ilulissat,69.2167,-51.1,-18.769999999999982,88,15,0.28,GL,1678373990
74,cape town,-33.9258,18.4232,22.430000000000007,78,75,4.63,ZA,1678373806
75,luderitz,-26.6481,15.1594,21.310000000000002,65,0,7.89,NA,1678374075
76,geelong,-38.1471,144.3607,15.400000000000034,87,9,1.34,AU,1678374222
77,cabedelo,-6.9811,-34.8339,30.370000000000005,62,100,7.27,BR,1678373981
78,iqaluit,63.7506,-68.5145,-13.149999999999977,92,75,9.77,CA,1678373989
79,pevek,69.7008,170.3133,-26.099999999999966,99,53,0.7,RU,1678374013
80,victoria,22.2855,114.1577,23.439999999999998,80,44,4.47,HK,1678373733
81,tahta,26.7693,31.5021,27.170000000000016,14,0,3.09,EG,1678374223
82,new norfolk,-42.7826,147.0587,14.720000000000027,67,100,2.24,AU,1678373969
83,fairbanks,64.8378,-147.7164,-1.329999999999984,85,100,6.17,US,1678374224
84,zhigansk,66.7697,123.3711,-15.629999999999995,92,100,6.15,RU,1678374021
85,chapais,49.7834,-74.8492,-9.120000000000005,89,100,4.86,CA,1678373991
86,boguchany,58.3814,97.4531,-19.329999999999984,88,100,5.08,RU,1678374053
87,wawa,9.9022,4.4192,38.879999999999995,22,30,1.2,NG,1678374224
88,chokurdakh,70.6333,147.9167,-33.04999999999998,100,88,2.6,RU,1678373967
89,san patricio,28.017,-97.5169,24.370000000000005,73,36,6.72,US,1678373969
90,jamestown,42.097,-79.2353,-0.5499999999999545,94,100,0.89,US,1678373962
91,shieli,44.1667,66.75,9.879999999999995,66,100,5.03,KZ,1678374225
92,airai,-8.9266,125.4092,15.400000000000034,91,100,0.42,TL,1678373964
93,sao sebastiao,-23.76,-45.4097,31.160000000000025,52,24,2.28,BR,1678374152
94,bowen,-20.0167,148.2333,26.930000000000007,85,57,3.8,AU,1678374226
95,dikson,73.5069,80.5464,-19.379999999999967,94,98,7.53,RU,1678373947
96,khatanga,71.9667,102.5,-26.019999999999982,97,100,5.23,RU,1678373988
97,selty,57.3132,52.1345,0.20000000000004547,89,100,4.76,RU,1678374226
98,port elizabeth,-33.918,25.5701,23.939999999999998,74,0,6.69,ZA,1678373989
99,sitka,57.0531,-135.33,-7.1299999999999955,73,92,2.0,US,1678373977
100,saint-philippe,-21.3585,55.7679,25.77000000000004,92,91,4.27,RE,1678373974
101,puerto ayora,-0.7393,-90.3518,28.08000000000004,83,84,3.13,EC,1678373990
102,saint george,37.1041,-113.5841,7.020000000000039,42,100,1.51,US,1678373983
103,anadyr,64.75,177.4833,-2.7199999999999704,93,97,11.0,RU,1678374013
104,santa fe,-31.6333,-60.7,36.83000000000004,36,0,0.89,AR,1678374096
105,kruisfontein,-34.0033,24.7314,22.710000000000036,66,7,6.6,ZA,1678374023
106,lompoc,34.6391,-120.4579,10.430000000000007,79,82,1.0,US,1678373978
107,barrow,71.2906,-156.7887,-22.98999999999998,77,0,5.66,US,1678374015
108,rudnya,54.947,31.0934,-4.189999999999998,90,96,2.54,RU,1678374228
109,bose,45.4612,8.0137,18.340000000000032,55,53,1.88,IT,1678374228
110,severo-kurilsk,50.6789,156.125,-3.1200000000000045,84,34,7.15,RU,1678373995
111,swan river,52.1058,-101.2676,-19.149999999999977,99,100,2.6,CA,1678374229
112,esperance,-33.8667,121.9,18.650000000000034,78,0,5.44,AU,1678374029
113,sungairaya,0.7,108.9,24.79000000000002,91,79,2.39,ID,1678374230
114,tuktoyaktuk,69.4541,-133.0374,-22.99999999999997,77,75,3.09,CA,1678373959
115,phalodi,27.1333,72.3667,27.02000000000004,13,0,3.1,IN,1678374230
116,ribeira grande,38.5167,-28.7,18.220000000000027,88,75,11.18,PT,1678373959
117,belmonte,-15.8631,-38.8828,27.910000000000025,67,100,2.2,BR,1678374230
118,kahului,20.8947,-156.47,20.54000000000002,87,58,5.12,US,1678373979
119,labuhan,-6.8844,112.2051,26.07000000000005,83,31,1.35,ID,1678374038
120,shingu,33.7333,135.9833,13.480000000000018,87,100,2.12,JP,1678373974
121,saint-michel-des-saints,46.6834,-73.9159,-3.3700000000000045,93,100,3.71,CA,1678374073
122,ossora,59.2353,163.0719,-6.919999999999959,96,100,1.77,RU,1678373997
123,mitsamiouli,-11.3847,43.2844,28.32000000000005,75,81,4.49,KM,1678374232
124,marawi,7.9986,124.2928,19.870000000000005,97,51,0.93,PH,1678374232
125,lac du bonnet,50.2536,-96.0612,-8.549999999999955,89,93,2.53,CA,1678374232
126,aktau,43.65,51.2,11.32000000000005,91,100,2.33,KZ,1678374232
127,bredasdorp,-34.5322,20.0403,19.510000000000048,68,83,4.51,ZA,1678373980
128,herzogenaurach,49.568,10.8857,12.140000000000043,75,75,8.75,DE,1678374067
129,cidreira,-30.1811,-50.2056,29.640000000000043,58,31,2.91,BR,1678374018
130,henties bay,-22.116,14.2845,20.25,71,2,7.27,NA,1678374080
131,aklavik,68.2191,-135.0107,-11.269999999999982,89,100,11.91,CA,1678374233
132,upernavik,72.7868,-56.1549,-20.389999999999986,90,27,0.49,GL,1678373968
133,kapaa,22.0752,-159.319,17.879999999999995,69,15,0.45,US,1678373972
134,sretensk,52.2453,117.7093,-9.569999999999993,99,100,0.99,RU,1678374234
135,kalmunai,7.4167,81.8167,25.57000000000005,84,68,4.63,LK,1678374234
136,derzhavinsk,51.1,66.3167,-10.75,87,81,3.16,KZ,1678374234
137,saldanha,-33.0117,17.9442,18.450000000000045,79,83,1.87,ZA,1678373988
138,sattahip,12.6664,100.9007,27.77000000000004,83,1,1.54,TH,1678374235
139,ponta delgada,37.7333,-25.6667,17.400000000000034,94,75,6.17,PT,1678374085
140,castro,-24.7911,-50.0119,24.200000000000045,69,80,2.21,BR,1678373998
141,honningsvag,70.9821,25.9704,-6.139999999999986,63,100,3.6,NO,1678374098
142,skara,58.3866,13.4384,-3.42999999999995,93,100,2.24,SE,1678374236
143,cheremukhovo,60.3484,59.9851,-0.4399999999999977,94,100,4.63,RU,1678374236
144,chapleau,47.8405,-83.4034,-9.859999999999957,82,75,3.15,CA,1678374236
145,saint-joseph,-21.3667,55.6167,25.82000000000005,89,93,5.18,RE,1678374020
146,atambua,-9.1061,124.8925,23.58000000000004,91,99,0.52,ID,1678374236
147,tarakan,3.3,117.6333,26.939999999999998,81,8,4.49,ID,1678374237
148,makakilo city,21.3469,-158.0858,20.870000000000005,69,79,8.07,US,1678373982
149,dingle,10.9995,122.6711,23.79000000000002,81,0,2.95,PH,1678374081
150,pangnirtung,66.1451,-65.7125,-13.0,92,20,0.0,CA,1678373999
151,bari sadri,24.4167,74.4667,23.430000000000007,24,1,3.65,IN,1678374238
152,dunedin,-45.8742,170.5036,12.230000000000018,88,41,1.93,NZ,1678373963
153,saint-pierre,-21.3393,55.4781,26.620000000000005,89,100,8.23,RE,1678374037
154,yanam,16.7333,82.2167,24.379999999999995,73,100,1.43,IN,1678374071
155,hilo,19.7297,-155.09,22.930000000000007,92,3,0.45,US,1678373957
156,salalah,17.0151,54.0924,25.340000000000032,65,0,2.33,OM,1678374021
157,kavieng,-2.5744,150.7967,27.260000000000048,75,100,1.27,PG,1678373963
158,moyale,3.5167,39.0584,31.189999999999998,24,94,5.29,KE,1678374239
159,nuqui,5.7125,-77.2708,25.230000000000018,86,99,1.02,CO,1678374239
160,ternate,0.8,127.4,26.83000000000004,82,1,3.16,ID,1678374094
161,bairiki,1.3292,172.9752,27.0,83,75,1.03,KI,1678374240
162,avarua,-21.2078,-159.775,24.03000000000003,100,100,2.06,CK,1678373979
163,novaya zaimka,56.4857,66.9241,-1.42999999999995,96,100,8.7,RU,1678374240
164,iwanai,42.9744,140.5089,2.390000000000043,92,100,4.91,JP,1678374240
165,mahon,39.8885,4.2658,17.310000000000002,77,0,2.57,ES,1678374011
166,egvekinot,66.3167,-179.1667,-14.379999999999995,95,100,1.36,RU,1678373992
167,cherskiy,68.75,161.3,-23.649999999999977,91,100,2.1,RU,1678373984
168,tuy hoa,13.0833,109.3,22.010000000000048,83,67,4.14,VN,1678374241
169,poum,-20.2333,164.0167,26.32000000000005,74,5,5.34,NC,1678373978
170,bambous virieux,-20.3428,57.7575,27.340000000000032,100,75,5.14,MU,1678373981
171,sinnamary,5.3833,-52.95,27.28000000000003,67,92,3.72,GF,1678373986
172,hasaki,35.7333,140.8333,15.220000000000027,75,85,9.38,JP,1678374076
173,husavik,66.0449,-17.3389,-3.7899999999999636,92,100,12.23,IS,1678374181
174,aljezur,37.3191,-8.8033,18.660000000000025,79,20,5.43,PT,1678374001
175,talara,-4.5772,-81.2719,25.420000000000016,100,100,4.12,PE,1678374242
176,kazerun,29.6195,51.6541,20.720000000000027,48,100,1.13,IR,1678374243
177,mlyniv,50.509,25.6168,1.6299999999999955,97,100,2.22,UA,1678374243
178,narsaq,60.9167,-46.05,0.12000000000000455,62,100,2.83,GL,1678374060
179,provideniya,64.3833,-173.3,-15.989999999999952,73,10,1.22,RU,1678373958
180,butembo,0.15,29.2833,16.82000000000005,95,67,0.51,CD,1678374244
181,ati,13.2154,18.3353,39.09000000000003,8,80,4.45,TD,1678374244
182,casper,42.8666,-106.3131,-6.669999999999959,73,0,7.72,US,1678374245
183,leo,11.1,-2.1,39.82000000000005,6,16,1.02,BF,1678374245
184,srednekolymsk,67.45,153.6833,-32.79999999999998,99,100,0.48,RU,1678374245
185,lebu,-37.6167,-73.65,15.57000000000005,87,100,2.67,CL,1678373979
186,yar-sale,66.8333,70.8333,-16.549999999999955,95,95,6.68,RU,1678374246
187,constitucion,-35.3333,-72.4167,18.620000000000005,73,100,2.93,CL,1678374030
188,zemio,5.0314,25.1361,28.900000000000034,51,78,1.69,CF,1678374246
189,yulara,-25.2406,130.9889,20.510000000000048,36,0,3.53,AU,1678374027
190,alamos,27.0167,-108.9333,21.650000000000034,23,99,1.01,MX,1678374246
191,togur,58.3631,82.8265,-22.95999999999998,98,10,2.17,RU,1678374247
192,kibala,9.1104,18.3463,34.89000000000004,30,100,1.96,TD,1678374247
193,calama,-22.4667,-68.9333,19.27000000000004,52,0,3.6,CL,1678374247
194,tiksi,71.6872,128.8694,-33.569999999999965,100,49,1.4,RU,1678373903
195,pisco,-13.7,-76.2167,25.03000000000003,78,0,3.6,PE,1678373973
196,sept-iles,50.2001,-66.3821,0.18000000000000682,84,3,2.68,CA,1678374248
197,faanui,-16.4833,-151.75,27.970000000000027,72,86,4.18,PF,1678373985
198,ambilobe,-13.2,49.05,25.230000000000018,83,91,1.87,MG,1678374248
199,codrington,-38.2667,141.9667,14.970000000000027,90,100,2.65,AU,1678373958
200,paamiut,61.994,-49.6678,-3.3799999999999955,64,7,3.96,GL,1678374072
201,inhambane,-23.865,35.3833,26.870000000000005,84,1,5.29,MZ,1678374061
202,pitman,39.7329,-75.1316,7.07000000000005,57,0,6.17,US,1678374249
203,chuy,-33.6971,-53.4616,28.30000000000001,52,0,4.19,UY,1678373975
204,bengkulu,-3.8004,102.2655,25.02000000000004,90,98,3.11,ID,1678373979
205,chongoyape,-6.6406,-79.3892,27.170000000000016,71,100,1.87,PE,1678374156
206,nuevo progreso,23.1667,-97.95,24.150000000000034,81,68,0.45,MX,1678374250
207,beloha,-25.1667,45.05,24.80000000000001,82,85,7.02,MG,1678374075
208,eureka,40.8021,-124.1637,7.360000000000014,70,94,2.68,US,1678373994
209,cayenne,4.9333,-52.3333,30.02000000000004,54,0,6.17,GF,1678373975
210,necochea,-38.5473,-58.7368,29.200000000000045,31,43,3.15,AR,1678373990
211,yeppoon,-23.1333,150.7333,24.620000000000005,87,38,4.79,AU,1678374250
212,phangnga,8.4509,98.5298,26.02000000000004,79,22,2.28,TH,1678374251
213,luanda,-8.8368,13.2343,30.0,66,0,7.72,AO,1678374031
214,majene,-3.5403,118.9707,25.590000000000032,85,100,1.6,ID,1678374068
215,sola,-13.8833,167.55,27.210000000000036,77,97,1.64,VU,1678374251
216,nioki,-2.7167,17.6833,29.590000000000032,60,94,2.31,CD,1678374251
217,ostrovnoy,68.0531,39.5131,-17.029999999999973,95,29,4.38,RU,1678374078
218,san cristobal,7.7669,-72.225,18.74000000000001,78,96,1.48,VE,1678374094
219,aykhal,66.0,111.5,-16.17999999999995,98,100,1.3,RU,1678373995
220,bethel,41.3712,-73.414,5.550000000000011,59,9,1.79,US,1678373987
221,george town,5.4112,100.3354,26.970000000000027,83,20,1.54,MY,1678373969
222,zeya,53.75,127.2667,-6.669999999999959,96,100,1.84,RU,1678374253
223,sao jose da coroa grande,-8.8978,-35.1478,29.720000000000027,59,40,4.72,BR,1678374253
224,vila do maio,15.1333,-23.2167,32.44,75,0,5.01,CV,1678374253
225,saskylakh,71.9167,114.0833,-23.47999999999999,100,100,1.22,RU,1678373981
226,kamina,-8.7386,24.9906,24.99000000000001,77,91,1.21,CD,1678374254
227,tessalit,20.1986,1.0114,37.879999999999995,5,0,4.6,ML,1678374254
228,kaitangata,-46.2817,169.8464,10.439999999999998,96,69,1.96,NZ,1678373977
229,lorengau,-2.0226,147.2712,27.27000000000004,78,100,0.65,PG,1678374055
230,greytown,-29.0642,30.5928,23.53000000000003,84,15,2.9,ZA,1678374009
231,palm coast,29.585,-81.2078,23.05000000000001,60,40,5.14,US,1678374255
232,pandavapura,12.5006,76.6733,26.150000000000034,29,92,4.17,IN,1678374255
233,whitehorse,60.7161,-135.0538,-15.549999999999955,65,100,7.72,CA,1678373910
234,biltine,14.5333,20.9167,36.72000000000003,7,81,6.77,TD,1678374255
235,klaksvik,62.2266,-6.589,-0.48999999999995225,57,100,7.32,FO,1678373973
236,kuching,1.55,110.3333,27.79000000000002,94,20,0.0,MY,1678374256
237,ende,-8.8432,121.6623,25.680000000000007,90,82,1.23,ID,1678374256
238,nanortalik,60.1432,-45.2371,-0.5199999999999818,60,88,2.94,GL,1678373971
239,port hardy,50.6996,-127.4199,1.8900000000000432,76,7,3.14,CA,1678374256
240,victor harbor,-35.5667,138.6167,14.82000000000005,80,72,0.12,AU,1678374256
241,sao filipe,14.8961,-24.4956,27.189999999999998,53,0,6.3,CV,1678374057
242,touros,-5.1989,-35.4608,29.600000000000023,66,86,7.93,BR,1678374099
243,nizwa,22.9333,57.5333,27.870000000000005,19,33,4.36,OM,1678374085
244,tasiilaq,65.6145,-37.6368,-6.359999999999957,92,100,7.83,GL,1678373965
245,gunupur,19.0833,83.8167,26.950000000000045,45,99,2.46,IN,1678374258
246,broome,42.2506,-75.833,0.35000000000002274,76,100,5.14,US,1678374258
247,coahuayana,18.7333,-103.6833,24.200000000000045,63,5,0.14,MX,1678373962
248,kushmurun,52.4503,64.6311,-5.359999999999957,86,100,6.76,KZ,1678374258
249,progreso,21.2833,-89.6667,27.28000000000003,63,0,4.61,MX,1678374150
250,shimoda,34.6667,138.95,13.950000000000045,82,90,5.09,JP,1678373994
251,duiwelskloof,-23.6934,30.14,29.890000000000043,42,0,3.46,ZA,1678374259
252,westport,41.1415,-73.3579,6.910000000000025,55,20,5.66,US,1678374259
253,banjar,-8.19,114.9675,25.210000000000036,91,41,1.25,ID,1678374071
254,nioro,13.35,-15.75,39.98000000000002,5,0,4.13,GM,1678374059
255,hokitika,-42.7167,170.9667,15.150000000000034,92,100,1.0,NZ,1678374259
256,awjilah,29.1081,21.2869,22.55000000000001,31,0,4.36,LY,1678374260
257,maxixe,-23.8597,35.3472,26.840000000000032,83,2,4.96,MZ,1678374019
258,teahupoo,-17.8333,-149.2667,21.980000000000018,79,53,5.21,PF,1678374079
259,margate,51.3813,1.3862,10.390000000000043,92,100,2.68,GB,1678374260
260,morant bay,17.8815,-76.4093,29.28000000000003,56,97,3.08,JM,1678374261
261,la tuque,47.4334,-72.7824,0.4000000000000341,94,100,3.43,CA,1678374261
262,tumarbong,10.3766,119.4579,23.670000000000016,91,12,2.05,PH,1678374261
263,teya,60.3778,92.6267,-19.619999999999976,93,94,2.95,RU,1678373999
264,tianpeng,30.9866,103.9393,19.29000000000002,74,98,2.51,CN,1678374123
265,pacific grove,36.6177,-121.9166,7.060000000000002,88,100,0.45,US,1678374262
266,igrim,63.1906,64.4162,-7.759999999999991,90,100,7.37,RU,1678374262
267,mahajanga,-15.7167,46.3167,27.57000000000005,78,100,3.03,MG,1678374262
268,soria,41.6667,-2.6667,8.390000000000043,100,60,11.53,ES,1678374241
269,liverpool,53.4106,-2.9779,3.410000000000025,94,100,6.69,GB,1678374262
270,coihaique,-45.5752,-72.0662,14.340000000000032,58,40,2.57,CL,1678373813
271,lovington,32.944,-103.3485,8.470000000000027,76,96,1.53,US,1678374263
272,matamoros,25.5333,-103.25,20.060000000000002,61,86,0.44,MX,1678374263
273,lazarev,52.225,141.5131,-10.539999999999964,94,100,3.38,RU,1678374263
274,moanda,-1.5575,13.2178,32.78000000000003,46,70,0.72,GA,1678374264
275,asau,46.4333,26.4,15.510000000000048,72,100,3.04,RO,1678374082
276,hofn,64.2539,-15.2082,-1.9899999999999523,43,75,10.8,IS,1678374049
277,odienne,9.51,-7.5692,40.210000000000036,5,45,1.12,CI,1678374265
278,luena,-11.7833,19.9167,23.360000000000014,80,98,1.09,AO,1678374265
279,biak,-0.9131,122.8766,24.610000000000014,84,87,0.92,ID,1678374265
280,port-gentil,-0.7193,8.7815,29.980000000000018,79,40,6.69,GA,1678373914
281,bilibino,68.0546,166.4372,-22.089999999999975,97,89,1.62,RU,1678374266
282,ayan,56.45,138.1667,-13.259999999999991,94,100,3.98,RU,1678374266
283,oliveira dos brejinhos,-12.3169,-42.8961,35.170000000000016,19,64,2.29,BR,1678374266
284,masterton,-40.9597,175.6575,17.160000000000025,85,100,3.1,NZ,1678374266
285,praia da vitoria,38.7333,-27.0667,18.75,94,75,13.36,PT,1678373932
286,mwene-ditu,-7.0,23.45,25.150000000000034,80,100,1.65,CD,1678374267
287,ialibu,-6.2821,143.9935,13.360000000000014,97,100,0.88,PG,1678374267
288,krutinka,56.0055,71.5113,-2.2799999999999727,92,100,7.03,RU,1678374268
289,xuddur,4.1213,43.8894,34.29000000000002,21,13,5.39,SO,1678374268
290,turukhansk,65.8167,87.9833,-25.69999999999999,99,54,2.5,RU,1678374077
291,groningen,53.25,6.75,4.460000000000036,79,100,3.6,NL,1678374213
292,indianola,41.3581,-93.5574,0.9200000000000159,96,100,4.19,US,1678374269
293,black river,18.0264,-77.8487,26.78000000000003,54,99,1.62,JM,1678374269
294,georgetown,5.4112,100.3354,26.970000000000027,83,20,1.54,MY,1678373969
295,east london,-33.0153,27.9116,26.52000000000004,69,0,3.6,ZA,1678373895
296,bereda,43.2686,-7.5406,14.520000000000039,87,72,5.54,ES,1678374066
297,ketchikan,55.3422,-131.6461,-4.909999999999968,74,60,2.35,US,1678374099
298,nabire,-3.3667,135.4833,24.970000000000027,87,71,1.3,ID,1678374270
299,hamilton,39.1834,-84.5333,4.670000000000016,70,92,3.58,US,1678373739
300,port hedland,-20.3167,118.5667,30.24000000000001,69,41,6.33,AU,1678374098
301,leh,34.1667,77.5833,-11.169999999999959,54,0,1.63,IN,1678374270
302,easton,40.6884,-75.2207,6.410000000000025,57,0,5.14,US,1678374271
303,najran,17.4924,44.1277,26.590000000000032,29,38,3.28,SA,1678374007
304,olafsvik,64.8945,-23.7142,-1.8199999999999932,65,100,11.07,IS,1678374070
305,jennings,38.7192,-90.2604,7.890000000000043,53,100,5.66,US,1678374271
306,hay river,60.8156,-115.7999,-18.589999999999975,95,30,3.25,CA,1678374272
307,sieradz,51.5958,18.7302,0.8300000000000409,93,100,2.02,PL,1678374013
308,waipawa,-41.4122,175.5153,16.83000000000004,82,100,5.59,NZ,1678374272
309,acarau,-2.8856,-40.12,29.970000000000027,65,96,5.61,BR,1678374272
310,sassandra,4.95,-6.0833,30.220000000000027,66,81,2.76,CI,1678374272
311,katherine,-14.4667,132.2667,23.370000000000005,71,100,1.75,AU,1678374273
312,camacupa,-12.0167,17.4833,22.0,83,100,0.64,AO,1678374273
313,kodiak,57.79,-152.4072,1.7000000000000455,89,4,3.63,US,1678373983
314,staunton,38.1496,-79.0717,9.420000000000016,59,0,0.89,US,1678374273
315,bagotville,-28.9833,153.4167,22.58000000000004,99,100,2.23,AU,1678374274
316,goderich,43.7501,-81.7165,0.5100000000000477,59,81,2.06,CA,1678373913
317,kaeo,-35.1,173.7833,18.510000000000048,94,100,4.38,NZ,1678373978
318,lagoa,39.05,-27.9833,17.100000000000023,87,100,11.56,PT,1678373987
319,mana,5.6592,-53.7767,27.430000000000007,68,90,3.62,GF,1678374274
320,greystones,53.1408,-6.0631,3.82000000000005,95,100,7.57,IE,1678374275
321,port augusta,-32.5,137.7667,17.27000000000004,70,0,2.97,AU,1678374056
322,port-cartier,50.0334,-66.8654,0.7000000000000455,73,4,2.34,CA,1678374275
323,nikolskoye,59.7035,30.7861,-6.060000000000002,85,100,3.73,RU,1678373996
324,valparaiso,-33.0393,-71.6273,21.129999999999995,70,20,3.09,CL,1678374276
325,noumea,-22.2763,166.4572,21.99000000000001,78,5,2.85,NC,1678373766
326,skjervoy,70.0311,20.9714,-4.0,83,100,12.01,NO,1678373983
327,carahue,-38.7,-73.1667,15.680000000000007,85,100,0.42,CL,1678374277
328,dwarka,22.2394,68.9678,26.360000000000014,49,0,4.55,IN,1678374277
329,nizhnevartovsk,60.9344,76.5531,-16.989999999999952,66,0,4.02,RU,1678374032
330,bowmore,34.9421,-79.3031,11.910000000000025,42,0,4.12,US,1678374277
331,burnie,-41.0667,145.9167,14.140000000000043,92,88,5.32,AU,1678374059
332,auki,-8.7676,160.7034,24.24000000000001,95,100,1.0,SB,1678374084
333,tarauaca,-8.1614,-70.7656,27.379999999999995,78,100,1.36,BR,1678374278
334,hobyo,5.3505,48.5268,26.75,81,8,6.92,SO,1678374278
335,puerto narino,-3.7703,-70.3831,29.700000000000045,66,97,1.59,CO,1678374279
336,fortuna,40.5982,-124.1573,7.210000000000036,82,100,11.83,US,1678374000
337,dalbandin,28.8947,64.4101,26.150000000000034,15,44,3.53,PK,1678374279
338,danville,36.586,-79.395,11.300000000000011,44,66,1.34,US,1678374035
339,impfondo,1.6381,18.0667,31.02000000000004,47,93,1.72,CG,1678374279
340,tura,25.5198,90.2201,21.720000000000027,30,0,1.2,IN,1678374041
341,high level,58.5169,-117.136,-23.919999999999987,100,95,1.9,CA,1678374105
342,umm lajj,25.0213,37.2685,23.03000000000003,46,0,8.36,SA,1678374280
343,ruston,32.5232,-92.6379,17.55000000000001,94,20,3.6,US,1678374280
344,katsuura,35.1333,140.3,15.960000000000036,74,84,8.1,JP,1678373956
345,berdigestyakh,62.0989,126.6992,-14.199999999999989,95,97,3.62,RU,1678374281
346,unity,52.4501,-109.1682,-19.299999999999983,96,92,4.27,CA,1678374281
347,padang,-0.9492,100.3543,27.03000000000003,88,53,2.08,ID,1678374019
348,talnakh,69.4865,88.3972,-25.329999999999984,96,100,5.18,RU,1678373986
349,ancud,-41.8697,-73.8203,11.580000000000041,92,100,3.54,CL,1678374282
350,marsa matruh,31.3525,27.2453,18.400000000000034,74,0,6.46,EG,1678374057
351,muskegon,43.3,-86.1334,4.340000000000032,50,100,6.69,US,1678374282
352,hasanpur,28.7167,78.2833,22.74000000000001,29,19,2.78,IN,1678374282
353,semirom,31.4167,51.5667,6.7900000000000205,80,77,3.98,IR,1678374283
354,sturgeon falls,46.3646,-79.9326,-6.899999999999977,82,86,4.01,CA,1678374283
355,yumen,40.2833,97.2,8.75,33,0,4.85,CN,1678374283
356,maputo,-25.9653,32.5892,30.129999999999995,76,15,1.79,MZ,1678374212
357,harper,4.375,-7.7169,29.57000000000005,68,89,2.04,LR,1678374283
358,tual,-5.6667,132.75,28.210000000000036,77,22,6.55,ID,1678374064
359,banepa,27.6298,85.5214,16.180000000000007,48,20,1.54,NP,1678374284
360,shu,43.5983,73.7614,8.840000000000032,69,100,2.93,KZ,1678374284
361,sankheda,22.1667,73.5833,28.879999999999995,16,0,3.92,IN,1678374284
362,salinopolis,-0.6136,-47.3561,27.090000000000032,79,89,2.26,BR,1678374089
363,mahebourg,-20.4081,57.7,27.360000000000014,85,61,4.05,MU,1678374050
364,thinadhoo,0.5333,72.9333,27.52000000000004,76,81,3.35,MV,1678374049
365,redlands,34.0556,-117.1825,10.970000000000027,69,40,2.06,US,1678374285
366,trinidad,-14.8333,-64.9,27.340000000000032,84,87,1.55,BO,1678374285
367,orlik,52.5178,99.825,-19.319999999999965,87,22,3.19,RU,1678374285
368,port macquarie,-31.4333,152.9167,19.379999999999995,72,100,1.5,AU,1678374000
369,dakar,14.6937,-17.4441,38.49000000000001,55,0,7.39,SN,1678374001
370,nome,64.5011,-165.4064,-13.95999999999998,100,100,2.06,US,1678373992
371,amreli,21.6167,71.2333,29.950000000000045,13,0,4.09,IN,1678374286
372,macklin,52.3334,-109.9348,-17.22999999999999,96,89,4.03,CA,1678374286
373,farmington,36.7281,-108.2187,3.7600000000000477,38,0,1.54,US,1678374228
374,tromso,69.6496,18.957,-3.67999999999995,86,100,2.06,NO,1678374038
375,saint-francois,46.4154,3.9054,13.689999999999998,82,75,0.51,FR,1678374287
376,kunnamangalam,11.3046,75.8777,28.350000000000023,69,100,1.43,IN,1678374287
377,chantada,42.6088,-7.7712,13.080000000000041,81,73,7.05,ES,1678374287
378,north bend,43.4065,-124.2243,4.9500000000000455,94,100,3.6,US,1678374288
379,eutin,54.1333,10.6167,4.420000000000016,67,100,2.0,DE,1678374028
380,richards bay,-28.783,32.0377,26.860000000000014,77,5,3.07,ZA,1678374288
381,alice,27.7523,-98.0697,25.689999999999998,97,100,6.17,US,1678374288
382,sueyoshi,31.65,131.0167,9.420000000000016,93,93,1.13,JP,1678374288
383,nador,35.174,-2.9287,20.140000000000043,60,0,4.12,MA,1678374213
384,qui nhon,13.7667,109.2333,21.689999999999998,84,41,4.43,VN,1678374289
385,saint-georges,12.0564,-61.7485,26.620000000000005,70,99,4.24,GD,1678374017
386,jalingo,8.8833,11.3667,39.650000000000034,10,100,3.27,NG,1678374289
387,altayskoye,51.9533,85.3325,-4.189999999999998,96,100,0.92,RU,1678374289
388,aschaffenburg,49.9739,9.1492,13.410000000000025,81,99,6.21,DE,1678374069
389,abu dhabi,24.4667,54.3667,28.860000000000014,66,91,3.12,AE,1678374043
390,buldana,20.5333,76.1833,27.620000000000005,19,76,3.27,IN,1678374290
391,mbekenyera,-10.0,38.9833,26.590000000000032,76,29,1.79,TZ,1678374290
392,iralaya,15.0,-83.2333,27.480000000000018,58,43,0.68,HN,1678374290
393,boyolangu,-8.1181,111.8935,23.920000000000016,86,32,0.23,ID,1678374290
394,bandarbeyla,9.4942,50.8122,26.090000000000032,73,28,5.69,SO,1678374291
395,kibre mengist,5.8833,38.9833,21.75,48,99,2.0,ET,1678374291
396,saint anthony,45.0205,-93.218,1.6299999999999955,75,100,4.12,US,1678374291
397,asfi,32.2994,-9.2372,19.83000000000004,70,100,6.08,MA,1678374149
398,tunceli,39.1083,39.5471,10.860000000000014,56,40,1.11,TR,1678374061
399,korla,41.7597,86.1469,12.020000000000039,35,41,6.15,CN,1678374119
400,jibuti,11.5,42.5,24.220000000000027,66,83,7.19,DJ,1678374292
401,harwich,51.9419,1.2844,4.730000000000018,88,100,4.02,GB,1678374131
402,krasnoselkup,65.7,82.4667,-18.95999999999998,90,100,6.69,RU,1678374292
403,tacuarembo,-31.7333,-55.9833,35.05000000000001,25,0,1.94,UY,1678374132
404,hami,42.8,93.45,10.920000000000016,32,100,7.37,CN,1678374293
405,adrar,20.5022,-10.0711,33.56,6,0,3.2,MR,1678374293
406,salekhard,66.53,66.6019,-16.21999999999997,98,100,1.95,RU,1678374278
407,zychlin,52.244,19.6261,0.3900000000000432,89,100,4.83,PL,1678374154
408,rio grande,-32.035,-52.0986,28.560000000000002,65,0,4.53,BR,1678374035
409,volchikha,52.0333,80.3833,-4.42999999999995,86,100,3.34,RU,1678374294
410,shache,38.4167,77.2406,15.140000000000043,18,23,1.95,CN,1678374294
411,biskupiec,53.8647,20.9569,0.9000000000000341,53,100,2.91,PL,1678374294
412,igarka,67.4667,86.5833,-21.42999999999998,94,95,3.34,RU,1678374295
413,aranos,-24.1333,19.1167,34.34000000000003,9,0,4.62,NA,1678374295
414,simplicio mendes,-7.8539,-41.9103,35.82000000000005,29,81,3.17,BR,1678374295
415,neyshabur,36.2133,58.7958,19.350000000000023,41,100,4.39,IR,1678374278
416,isla mujeres,21.2311,-86.731,27.03000000000003,62,28,3.15,MX,1678374296
417,abu samrah,35.3029,37.1841,15.120000000000005,51,13,6.96,SY,1678373995
418,angoche,-16.2325,39.9086,29.77000000000004,66,100,2.94,MZ,1678374296
419,quito,-0.2299,-78.5249,11.450000000000045,86,100,0.47,EC,1678374005
420,wajir,1.7471,40.0573,36.27000000000004,24,19,4.61,KE,1678374044
421,lindi,-10.0,39.7167,27.510000000000048,75,74,3.35,TZ,1678374297
422,funadhoo,6.15,73.2667,27.560000000000002,75,70,5.77,MV,1678374297
423,cabo san lucas,22.8909,-109.9124,19.730000000000018,62,94,3.47,MX,1678373995
424,skelleftea,64.7507,20.9528,-3.7999999999999545,54,0,4.12,SE,1678374256
425,beawar,26.1,74.3167,23.79000000000002,22,0,2.62,IN,1678374093
426,san quintin,30.4833,-115.95,12.060000000000002,79,5,4.65,MX,1678374067
427,ukiah,39.1502,-123.2078,5.640000000000043,90,100,0.0,US,1678374083
428,custodia,-8.0875,-37.6431,34.75,24,8,4.29,BR,1678374125
429,challapata,-18.9,-66.7667,15.57000000000005,40,87,0.15,BO,1678374298
430,isoka,-10.1606,32.6335,22.230000000000018,85,90,0.77,ZM,1678374298
431,camacha,33.0833,-16.3333,19.680000000000007,78,20,5.14,PT,1678374299
432,havelock,34.8791,-76.9013,11.970000000000027,57,11,1.34,US,1678374127
433,okha,53.5739,142.9478,-8.42999999999995,90,100,4.94,RU,1678374299
434,monte patria,-30.6919,-70.9467,26.720000000000027,44,0,2.61,CL,1678374299
435,sao miguel do araguaia,-13.275,-50.1628,26.810000000000002,70,100,2.61,BR,1678374299
436,surt,31.2089,16.5887,21.390000000000043,42,0,2.98,LY,1678374070
437,valkeakoski,61.2642,24.0312,-5.789999999999964,77,2,1.85,FI,1678374300
438,alice springs,-23.7,133.8833,18.360000000000014,43,6,2.57,AU,1678374055
439,muros,42.7762,-9.0603,16.720000000000027,80,19,9.01,ES,1678374056
440,jalu,29.0331,21.5482,22.510000000000048,31,0,4.66,LY,1678373986
441,karoi,-16.8099,29.6925,25.160000000000025,62,100,1.42,ZW,1678374301
442,amapa,1.0,-52.0,29.160000000000025,64,89,1.54,BR,1678373996
443,barra,-11.0894,-43.1417,32.43000000000001,32,100,2.13,BR,1678374302
444,bireun,5.203,96.7009,25.32000000000005,85,95,1.96,ID,1678374303
445,chiplun,17.5333,73.5167,27.720000000000027,31,37,0.93,IN,1678374303
446,grootegast,53.2125,6.2736,4.430000000000007,46,100,1.79,NL,1678374303
447,kiruna,67.8557,20.2251,-6.489999999999952,63,100,6.69,SE,1678373741
448,rosetta,31.4044,30.4164,19.02000000000004,57,21,7.21,EG,1678374304
449,ourossogui,15.6064,-13.3211,37.74000000000001,4,0,3.24,SN,1678374304
450,port lincoln,-34.7333,135.8667,15.379999999999995,79,20,2.73,AU,1678373980
451,bamiantong,44.9333,130.5333,0.010000000000047748,88,13,0.83,CN,1678374305
452,vardo,70.3705,31.1107,-9.009999999999991,79,20,10.8,NO,1678373974
453,narsingi,18.0333,78.4333,26.670000000000016,22,25,3.36,IN,1678374057
454,boquira,-12.8231,-42.7306,33.73000000000002,22,76,2.71,BR,1678374306
455,san ignacio,17.1561,-89.0714,26.680000000000007,62,80,1.93,BZ,1678374306
456,pokosnoye,55.5258,101.0536,-15.479999999999961,84,68,7.19,RU,1678374306
457,calabozo,8.9242,-67.4293,31.52000000000004,46,98,3.96,VE,1678374045
458,kamaishi,39.2667,141.8833,8.520000000000039,85,100,0.84,JP,1678374307
459,amga,60.8953,131.9608,-24.069999999999965,100,94,1.19,RU,1678374307
460,dalby,-27.1833,151.2667,19.99000000000001,92,100,3.04,AU,1678374307
461,severobaykalsk,55.65,109.3167,-10.21999999999997,88,64,3.35,RU,1678374022
462,ubatuba,-23.4339,-45.0711,30.460000000000036,56,43,1.64,BR,1678374307
463,sao raimundo nonato,-9.0153,-42.6994,34.870000000000005,28,76,3.92,BR,1678374308
464,townsville,-19.25,146.8,26.0,86,5,1.19,AU,1678374308
465,itarema,-2.9248,-39.9167,30.430000000000007,63,97,5.94,BR,1678374024
466,ulaangom,49.9811,92.0667,-13.339999999999975,65,25,2.82,MN,1678374061
467,kieta,-6.2167,155.6333,25.920000000000016,85,100,1.93,PG,1678374309
468,marfino,55.7028,37.3822,-1.8599999999999568,79,0,3.0,RU,1678374309
469,caravelas,-17.7125,-39.2481,30.49000000000001,54,100,3.89,BR,1678373957
470,ugoofaaru,5.6667,73.0,27.470000000000027,79,49,7.34,MV,1678374309
471,batagay,67.6333,134.6333,-36.21999999999997,100,19,1.31,RU,1678374049
472,acapulco,16.8634,-99.8901,25.470000000000027,62,0,0.52,MX,1678374099
473,narasannapeta,18.4167,84.05,24.74000000000001,73,92,0.35,IN,1678374310
474,benjamin constant,-4.3831,-70.0311,29.07000000000005,70,75,3.09,BR,1678374310
475,shelburne,44.0787,-80.2041,-3.6899999999999977,78,98,4.9,CA,1678374230
476,brooks,50.5834,-111.8851,-15.539999999999964,82,99,2.42,CA,1678374310
477,concepcion de guasistagua,14.6,-87.65,24.980000000000018,68,92,0.93,HN,1678374310
478,tabou,4.423,-7.3528,29.58000000000004,69,71,2.25,CI,1678374081
479,flinders,-34.5833,150.8552,17.32000000000005,79,0,1.34,AU,1678373905
480,nishihara,26.1842,127.7558,17.600000000000023,82,20,4.12,JP,1678374033
481,avera,33.194,-82.5271,16.420000000000016,37,93,2.83,US,1678374311
482,lyaskelya,61.7667,31.0167,-10.379999999999995,88,17,3.27,RU,1678374311
483,kafue,-15.7691,28.1814,26.420000000000016,66,100,2.63,ZM,1678374312
484,custoias,41.1053,-7.321,16.189999999999998,62,32,9.15,PT,1678374312
485,ladnun,27.65,74.3833,25.670000000000016,21,0,3.21,IN,1678374312
486,alyangula,-13.8483,136.4192,26.879999999999995,54,3,0.81,AU,1678374312
487,mumford,5.2618,-0.759,28.970000000000027,72,18,5.28,GH,1678374313
488,beaupre,47.0443,-70.8953,3.080000000000041,96,100,1.39,CA,1678374313
489,loa janan,-0.583,117.095,23.03000000000003,97,84,0.1,ID,1678374026
490,lentekhi,42.7856,42.7261,6.210000000000036,90,77,0.77,GE,1678374313
491,moose factory,51.2585,-80.6094,-14.009999999999991,72,100,4.12,CA,1678374314
492,anloga,5.7947,0.8973,29.460000000000036,72,59,5.41,GH,1678374314
493,alofi,-19.0595,-169.9187,26.960000000000036,80,100,10.71,NU,1678374064
494,maniitsoq,65.4167,-52.9,-5.399999999999977,64,1,1.79,GL,1678374314
495,lamar,33.6668,-95.5836,14.090000000000032,97,100,3.6,US,1678374315
496,weston,26.1004,-80.3998,26.120000000000005,60,40,5.66,US,1678374315
497,potenza,40.6443,15.8086,14.400000000000034,66,74,2.24,IT,1678374315
498,brae,60.3964,-1.353,3.0600000000000023,48,68,5.04,GB,1678374096
499,caluquembe,-13.7833,14.6833,21.960000000000036,66,97,0.89,AO,1678374315
500,nizhniy tsasuchey,50.5167,115.1333,0.9500000000000455,58,100,0.19,RU,1678374316
501,wani,20.0667,78.95,30.010000000000048,17,2,3.04,IN,1678374316
502,camabatela,-8.1881,15.375,26.120000000000005,58,78,1.11,AO,1678374065
503,adeje,28.1227,-16.726,23.900000000000034,76,20,8.75,ES,1678374316
504,rimouski,48.4488,-68.524,-0.92999999999995,88,100,4.58,CA,1678374316
505,diffa,13.3154,12.6113,38.07000000000005,7,98,8.47,NE,1678374316
506,yizheng,24.6706,103.4296,11.330000000000041,73,2,1.7,CN,1678374317
507,quatre cocos,-20.2078,57.7625,27.27000000000004,84,72,4.38,MU,1678374048
508,liancheng,24.0519,105.075,15.700000000000045,76,10,1.54,CN,1678374317
509,never,46.9896,3.159,15.450000000000045,80,100,4.54,FR,1678374030
510,beringovskiy,63.05,179.3167,-6.229999999999961,98,77,5.48,RU,1678374317
511,aparecida do taboado,-20.0867,-51.0936,27.210000000000036,68,86,4.14,BR,1678374318
512,karratha,-20.7377,116.8463,29.78000000000003,65,48,6.97,AU,1678374063
513,nara,34.6851,135.8049,16.650000000000034,58,100,1.0,JP,1678374022
514,wielun,51.221,18.5696,0.660000000000025,100,100,0.78,PL,1678374074
515,agadir,30.4202,-9.5982,24.25,50,18,3.09,MA,1678374318
516,mega,4.05,38.3,26.0,28,82,4.13,ET,1678374319
517,ocos,14.5094,-92.1933,28.100000000000023,74,91,1.79,GT,1678374319
518,makubetsu,45.3714,141.8211,-1.849999999999966,88,100,7.65,JP,1678374319
519,fort nelson,58.8053,-122.7002,-25.22999999999999,84,0,0.0,CA,1678373976
520,emba,48.8264,58.1442,-5.589999999999975,79,78,3.35,KZ,1678374320
521,lavrentiya,65.5833,-171.0,-21.569999999999965,87,62,1.77,RU,1678374032
522,tadine,-21.55,167.8833,24.450000000000045,74,75,4.95,NC,1678374320
523,borger,52.9233,6.7931,3.7700000000000387,88,100,3.17,NL,1678374183
524,valmiera,57.5411,25.4275,-2.1299999999999955,84,5,1.18,LV,1678374321
525,brus laguna,15.75,-84.4833,28.55000000000001,56,46,1.03,HN,1678374321
526,uvinza,-5.1036,30.3911,23.760000000000048,86,98,1.07,TZ,1678374321
527,haines junction,60.7522,-137.5108,-13.71999999999997,93,100,0.45,CA,1678374321
528,puerto suarez,-18.95,-57.8,30.310000000000002,70,40,2.57,BO,1678374322
529,farafangana,-22.8167,47.8333,24.189999999999998,89,97,0.8,MG,1678374322
530,floro,61.5996,5.0328,-1.0199999999999818,43,0,2.06,NO,1678374322
531,takoradi,4.8845,-1.7554,29.460000000000036,71,36,4.34,GH,1678374322
532,tommot,58.9564,126.2925,-17.22999999999999,95,100,1.65,RU,1678374323
533,praia,14.9215,-23.5087,32.30000000000001,29,0,10.29,CV,1678374323
534,bubaque,11.2833,-15.8333,26.24000000000001,70,73,5.22,GW,1678374323
535,colesberg,-30.72,25.0972,27.310000000000002,11,0,5.24,ZA,1678374323
536,portland,45.5234,-122.6762,5.3799999999999955,76,100,4.12,US,1678374264
537,talcahuano,-36.7167,-73.1167,15.830000000000041,85,100,2.58,CL,1678374130
538,kungurtug,50.5994,97.5228,-19.50999999999999,94,9,1.19,RU,1678374052
539,vila franca do campo,37.7167,-25.4333,17.230000000000018,94,94,9.14,PT,1678373988
540,viedma,-40.8135,-62.9967,25.660000000000025,27,100,2.11,AR,1678374324
541,bulle,46.6195,7.0567,15.25,52,100,6.26,CH,1678374140
542,nouadhibou,20.931,-17.0347,20.170000000000016,67,0,6.84,MR,1678374325
543,hwange,-18.3693,26.5019,34.129999999999995,29,38,2.17,ZW,1678374248
544,panjab,34.388,67.0233,-1.099999999999966,74,100,1.05,AF,1678374325
545,nainpur,22.4333,80.1167,26.720000000000027,22,78,1.29,IN,1678374325
546,ust-nera,64.5667,143.2,-34.059999999999974,97,58,1.26,RU,1678374031
547,cap malheureux,-19.9842,57.6142,27.480000000000018,82,69,2.68,MU,1678373972
548,gornopravdinsk,60.05,69.9,-6.560000000000002,90,100,6.08,RU,1678373992
549,kavaratti,10.5669,72.642,27.870000000000005,64,61,1.23,IN,1678374326
550,tateyama,34.9833,139.8667,16.720000000000027,74,99,8.3,JP,1678374326
551,vostok,46.4856,135.8833,-8.589999999999975,96,100,1.68,RU,1678374326
552,nemuro,43.3236,145.575,-1.2699999999999818,87,90,3.53,JP,1678374327
553,saint-augustin,51.226,-58.6502,1.2300000000000182,77,51,7.8,CA,1678374327
554,novyy urengoy,66.0833,76.6333,-19.299999999999983,86,74,7.23,RU,1678374327
555,havoysund,70.9963,24.6622,-5.8700000000000045,84,100,6.3,NO,1678374327
556,chulym,55.0997,80.9572,-12.419999999999959,98,80,3.28,RU,1678374052
557,abha,18.2164,42.5053,16.140000000000043,63,20,4.63,SA,1678374328
558,minyar,55.0709,57.5485,0.9000000000000341,98,100,5.77,RU,1678374328
559,colares,38.7992,-9.4469,20.74000000000001,84,40,9.39,PT,1678374328
560,south venice,27.0531,-82.4243,24.04000000000002,69,0,4.12,US,1678374328
561,sawankhalok,17.316,99.8319,26.129999999999995,32,1,3.38,TH,1678374329
562,wasaga beach,44.5168,-80.0164,-1.7099999999999795,74,73,0.45,CA,1678374163
563,qasigiannguit,68.8193,-51.1922,-7.859999999999957,88,39,0.91,GL,1678374329
564,umea,63.8284,20.2597,-4.039999999999964,39,0,3.6,SE,1678374330
565,bhadrak,21.0633,86.5054,24.170000000000016,52,73,2.63,IN,1678374330
566,pimentel,-6.8367,-79.9342,29.160000000000025,65,20,3.6,PE,1678374330
567,ginir,7.1333,40.7,22.200000000000045,39,96,3.16,ET,1678374330
568,maceio,-9.6658,-35.7353,31.689999999999998,55,40,6.69,BR,1678374050
569,wukari,7.85,9.7833,38.08000000000004,23,100,3.15,NG,1678374331
570,kurumkan,54.3,110.3,-7.099999999999966,85,100,3.04,RU,1678374331
571,bosaso,11.2842,49.1816,25.890000000000043,79,84,3.29,SO,1678374331
572,sulangan,11.1373,123.7228,26.400000000000034,77,0,8.49,PH,1678374332
573,maracacume,-2.0428,-45.9592,29.590000000000032,69,87,2.04,BR,1678374332
574,yiyang,28.5892,112.3283,19.439999999999998,62,100,2.27,CN,1678374332
575,ixtapa,20.7,-105.2,20.129999999999995,75,95,0.45,MX,1678374065
576,khingansk,49.1167,131.1833,-10.489999999999952,97,100,1.55,RU,1678374333
577,berlevag,70.8578,29.0864,-5.029999999999973,54,75,9.26,NO,1678374333
578,urubicha,-15.3833,-62.95,31.840000000000032,50,86,1.44,BO,1678374333
579,mayo,38.8876,-76.5119,7.82000000000005,54,0,3.6,US,1678374080
580,mehamn,71.0357,27.8492,-5.0499999999999545,63,75,4.63,NO,1678374334
581,bud,39.447,-86.1758,4.710000000000036,72,100,5.53,US,1678374334
